// !$*UTF8*$!
{
	archiveVersion = 1;
	classes = {
	};
	objectVersion = 50;
	objects = {

/* Begin PBXBuildFile section */
		4F1E014221C7EF9400A62E2F /* MPMavlink.h in Headers */ = {isa = PBXBuildFile; fileRef = 4F1E014021C7EF9400A62E2F /* MPMavlink.h */; settings = {ATTRIBUTES = (Public, ); }; };
		4F1E141721C8E76B00A62E2F /* mavlink_helpers.h in Headers */ = {isa = PBXBuildFile; fileRef = 4F1E126D21C8E76A00A62E2F /* mavlink_helpers.h */; settings = {ATTRIBUTES = (Public, ); }; };
		4F1E141821C8E76B00A62E2F /* mavlink_conversions.h in Headers */ = {isa = PBXBuildFile; fileRef = 4F1E126E21C8E76A00A62E2F /* mavlink_conversions.h */; settings = {ATTRIBUTES = (Public, ); }; };
		4F1E141921C8E76B00A62E2F /* mavlink_msg_high_latency2.h in Headers */ = {isa = PBXBuildFile; fileRef = 4F1E127021C8E76A00A62E2F /* mavlink_msg_high_latency2.h */; settings = {ATTRIBUTES = (Public, ); }; };
		4F1E141A21C8E76B00A62E2F /* MVMessageStatustext.h in Headers */ = {isa = PBXBuildFile; fileRef = 4F1E127121C8E76A00A62E2F /* MVMessageStatustext.h */; settings = {ATTRIBUTES = (Public, ); }; };
		4F1E141B21C8E76B00A62E2F /* MVMessageSimState.m in Sources */ = {isa = PBXBuildFile; fileRef = 4F1E127221C8E76A00A62E2F /* MVMessageSimState.m */; };
		4F1E141C21C8E76B00A62E2F /* MVMessageVfrHud.m in Sources */ = {isa = PBXBuildFile; fileRef = 4F1E127321C8E76A00A62E2F /* MVMessageVfrHud.m */; };
		4F1E141D21C8E76B00A62E2F /* MVMessageViconPositionEstimate.m in Sources */ = {isa = PBXBuildFile; fileRef = 4F1E127421C8E76A00A62E2F /* MVMessageViconPositionEstimate.m */; };
		4F1E141E21C8E76B00A62E2F /* MVMessageFollowTarget.m in Sources */ = {isa = PBXBuildFile; fileRef = 4F1E127521C8E76A00A62E2F /* MVMessageFollowTarget.m */; };
		4F1E141F21C8E76B00A62E2F /* MVMessageEncapsulatedData.h in Headers */ = {isa = PBXBuildFile; fileRef = 4F1E127621C8E76A00A62E2F /* MVMessageEncapsulatedData.h */; settings = {ATTRIBUTES = (Public, ); }; };
		4F1E142021C8E76B00A62E2F /* MVMessageDataStream.h in Headers */ = {isa = PBXBuildFile; fileRef = 4F1E127721C8E76A00A62E2F /* MVMessageDataStream.h */; settings = {ATTRIBUTES = (Public, ); }; };
		4F1E142121C8E76B00A62E2F /* MVMessageMissionCount.h in Headers */ = {isa = PBXBuildFile; fileRef = 4F1E127821C8E76A00A62E2F /* MVMessageMissionCount.h */; settings = {ATTRIBUTES = (Public, ); }; };
		4F1E142221C8E76B00A62E2F /* mavlink_msg_position_target_global_int.h in Headers */ = {isa = PBXBuildFile; fileRef = 4F1E127921C8E76A00A62E2F /* mavlink_msg_position_target_global_int.h */; settings = {ATTRIBUTES = (Public, ); }; };
		4F1E142321C8E76B00A62E2F /* MVMessageGpsInjectData.m in Sources */ = {isa = PBXBuildFile; fileRef = 4F1E127A21C8E76A00A62E2F /* MVMessageGpsInjectData.m */; };
		4F1E142421C8E76B00A62E2F /* MVMessageRcChannels.m in Sources */ = {isa = PBXBuildFile; fileRef = 4F1E127B21C8E76A00A62E2F /* MVMessageRcChannels.m */; };
		4F1E142521C8E76B00A62E2F /* mavlink_msg_rc_channels.h in Headers */ = {isa = PBXBuildFile; fileRef = 4F1E127C21C8E76A00A62E2F /* mavlink_msg_rc_channels.h */; settings = {ATTRIBUTES = (Public, ); }; };
		4F1E142621C8E76B00A62E2F /* MVMessageRequestDataStream.h in Headers */ = {isa = PBXBuildFile; fileRef = 4F1E127D21C8E76A00A62E2F /* MVMessageRequestDataStream.h */; settings = {ATTRIBUTES = (Public, ); }; };
		4F1E142721C8E76B00A62E2F /* MVMessageMissionItem.m in Sources */ = {isa = PBXBuildFile; fileRef = 4F1E127E21C8E76A00A62E2F /* MVMessageMissionItem.m */; };
		4F1E142821C8E76B00A62E2F /* MVMessageCommandAck.m in Sources */ = {isa = PBXBuildFile; fileRef = 4F1E127F21C8E76A00A62E2F /* MVMessageCommandAck.m */; };
		4F1E142921C8E76B00A62E2F /* MVMessageCommandInt.m in Sources */ = {isa = PBXBuildFile; fileRef = 4F1E128021C8E76A00A62E2F /* MVMessageCommandInt.m */; };
		4F1E142A21C8E76B00A62E2F /* MVMessageTimesync.m in Sources */ = {isa = PBXBuildFile; fileRef = 4F1E128121C8E76A00A62E2F /* MVMessageTimesync.m */; };
		4F1E142B21C8E76B00A62E2F /* MVMessageSetHomePosition.m in Sources */ = {isa = PBXBuildFile; fileRef = 4F1E128221C8E76A00A62E2F /* MVMessageSetHomePosition.m */; };
		4F1E142C21C8E76B00A62E2F /* MVMessageScaledPressure2.h in Headers */ = {isa = PBXBuildFile; fileRef = 4F1E128321C8E76A00A62E2F /* MVMessageScaledPressure2.h */; settings = {ATTRIBUTES = (Public, ); }; };
		4F1E142D21C8E76B00A62E2F /* MVMessageMissionRequest.h in Headers */ = {isa = PBXBuildFile; fileRef = 4F1E128421C8E76A00A62E2F /* MVMessageMissionRequest.h */; settings = {ATTRIBUTES = (Public, ); }; };
		4F1E142E21C8E76B00A62E2F /* MVMessageSafetyAllowedArea.m in Sources */ = {isa = PBXBuildFile; fileRef = 4F1E128521C8E76A00A62E2F /* MVMessageSafetyAllowedArea.m */; };
		4F1E142F21C8E76B00A62E2F /* MVMessageDebugVect.h in Headers */ = {isa = PBXBuildFile; fileRef = 4F1E128621C8E76A00A62E2F /* MVMessageDebugVect.h */; settings = {ATTRIBUTES = (Public, ); }; };
		4F1E143021C8E76B00A62E2F /* MVMessageAttitudeQuaternion.h in Headers */ = {isa = PBXBuildFile; fileRef = 4F1E128721C8E76A00A62E2F /* MVMessageAttitudeQuaternion.h */; settings = {ATTRIBUTES = (Public, ); }; };
		4F1E143121C8E76B00A62E2F /* MVMessageHighLatency.h in Headers */ = {isa = PBXBuildFile; fileRef = 4F1E128821C8E76A00A62E2F /* MVMessageHighLatency.h */; settings = {ATTRIBUTES = (Public, ); }; };
		4F1E143221C8E76B00A62E2F /* mavlink_msg_debug.h in Headers */ = {isa = PBXBuildFile; fileRef = 4F1E128921C8E76A00A62E2F /* mavlink_msg_debug.h */; settings = {ATTRIBUTES = (Public, ); }; };
		4F1E143321C8E76B00A62E2F /* MVMessageSerialControl.m in Sources */ = {isa = PBXBuildFile; fileRef = 4F1E128A21C8E76A00A62E2F /* MVMessageSerialControl.m */; };
		4F1E143421C8E76B00A62E2F /* mavlink_msg_debug_vect.h in Headers */ = {isa = PBXBuildFile; fileRef = 4F1E128B21C8E76A00A62E2F /* mavlink_msg_debug_vect.h */; settings = {ATTRIBUTES = (Public, ); }; };
		4F1E143521C8E76B00A62E2F /* mavlink_msg_sys_status.h in Headers */ = {isa = PBXBuildFile; fileRef = 4F1E128C21C8E76A00A62E2F /* mavlink_msg_sys_status.h */; settings = {ATTRIBUTES = (Public, ); }; };
		4F1E143621C8E76B00A62E2F /* mavlink_msg_param_set.h in Headers */ = {isa = PBXBuildFile; fileRef = 4F1E128D21C8E76A00A62E2F /* mavlink_msg_param_set.h */; settings = {ATTRIBUTES = (Public, ); }; };
		4F1E143721C8E76B00A62E2F /* mavlink_msg_mission_request_list.h in Headers */ = {isa = PBXBuildFile; fileRef = 4F1E128E21C8E76A00A62E2F /* mavlink_msg_mission_request_list.h */; settings = {ATTRIBUTES = (Public, ); }; };
		4F1E143821C8E76B00A62E2F /* MVMessageEstimatorStatus.m in Sources */ = {isa = PBXBuildFile; fileRef = 4F1E128F21C8E76A00A62E2F /* MVMessageEstimatorStatus.m */; };
		4F1E143921C8E76B00A62E2F /* MVMessageChangeOperatorControlAck.m in Sources */ = {isa = PBXBuildFile; fileRef = 4F1E129021C8E76A00A62E2F /* MVMessageChangeOperatorControlAck.m */; };
		4F1E143A21C8E76B00A62E2F /* MVMessageHilActuatorControls.h in Headers */ = {isa = PBXBuildFile; fileRef = 4F1E129121C8E76A00A62E2F /* MVMessageHilActuatorControls.h */; settings = {ATTRIBUTES = (Public, ); }; };
		4F1E143B21C8E76B00A62E2F /* mavlink_msg_raw_pressure.h in Headers */ = {isa = PBXBuildFile; fileRef = 4F1E129221C8E76A00A62E2F /* mavlink_msg_raw_pressure.h */; settings = {ATTRIBUTES = (Public, ); }; };
		4F1E143C21C8E76B00A62E2F /* mavlink_msg_safety_allowed_area.h in Headers */ = {isa = PBXBuildFile; fileRef = 4F1E129321C8E76A00A62E2F /* mavlink_msg_safety_allowed_area.h */; settings = {ATTRIBUTES = (Public, ); }; };
		4F1E143D21C8E76B00A62E2F /* mavlink_msg_terrain_data.h in Headers */ = {isa = PBXBuildFile; fileRef = 4F1E129421C8E76A00A62E2F /* mavlink_msg_terrain_data.h */; settings = {ATTRIBUTES = (Public, ); }; };
		4F1E143E21C8E76B00A62E2F /* MVMessageMissionClearAll.m in Sources */ = {isa = PBXBuildFile; fileRef = 4F1E129521C8E76A00A62E2F /* MVMessageMissionClearAll.m */; };
		4F1E143F21C8E76B00A62E2F /* mavlink_msg_sim_state.h in Headers */ = {isa = PBXBuildFile; fileRef = 4F1E129621C8E76A00A62E2F /* mavlink_msg_sim_state.h */; settings = {ATTRIBUTES = (Public, ); }; };
		4F1E144021C8E76B00A62E2F /* MVMessageManualSetpoint.m in Sources */ = {isa = PBXBuildFile; fileRef = 4F1E129721C8E76A00A62E2F /* MVMessageManualSetpoint.m */; };
		4F1E144121C8E76B00A62E2F /* mavlink_msg_gps2_raw.h in Headers */ = {isa = PBXBuildFile; fileRef = 4F1E129821C8E76A00A62E2F /* mavlink_msg_gps2_raw.h */; settings = {ATTRIBUTES = (Public, ); }; };
		4F1E144221C8E76B00A62E2F /* mavlink_msg_gps_rtcm_data.h in Headers */ = {isa = PBXBuildFile; fileRef = 4F1E129921C8E76A00A62E2F /* mavlink_msg_gps_rtcm_data.h */; settings = {ATTRIBUTES = (Public, ); }; };
		4F1E144321C8E76B00A62E2F /* mavlink_msg_nav_controller_output.h in Headers */ = {isa = PBXBuildFile; fileRef = 4F1E129A21C8E76A00A62E2F /* mavlink_msg_nav_controller_output.h */; settings = {ATTRIBUTES = (Public, ); }; };
		4F1E144421C8E76B00A62E2F /* MVMessageAuthKey.h in Headers */ = {isa = PBXBuildFile; fileRef = 4F1E129B21C8E76A00A62E2F /* MVMessageAuthKey.h */; settings = {ATTRIBUTES = (Public, ); }; };
		4F1E144521C8E76B00A62E2F /* mavlink_msg_mission_ack.h in Headers */ = {isa = PBXBuildFile; fileRef = 4F1E129C21C8E76A00A62E2F /* mavlink_msg_mission_ack.h */; settings = {ATTRIBUTES = (Public, ); }; };
		4F1E144621C8E76B00A62E2F /* MVMessageHilOpticalFlow.m in Sources */ = {isa = PBXBuildFile; fileRef = 4F1E129D21C8E76A00A62E2F /* MVMessageHilOpticalFlow.m */; };
		4F1E144721C8E76B00A62E2F /* MVMessageHomePosition.m in Sources */ = {isa = PBXBuildFile; fileRef = 4F1E129E21C8E76A00A62E2F /* MVMessageHomePosition.m */; };
		4F1E144821C8E76B00A62E2F /* MVMessageAttitudeTarget.m in Sources */ = {isa = PBXBuildFile; fileRef = 4F1E129F21C8E76A00A62E2F /* MVMessageAttitudeTarget.m */; };
		4F1E144921C8E76B00A62E2F /* MVMessageScaledPressure.h in Headers */ = {isa = PBXBuildFile; fileRef = 4F1E12A021C8E76A00A62E2F /* MVMessageScaledPressure.h */; settings = {ATTRIBUTES = (Public, ); }; };
		4F1E144A21C8E76B00A62E2F /* MVMessageParamRequestList.h in Headers */ = {isa = PBXBuildFile; fileRef = 4F1E12A121C8E76A00A62E2F /* MVMessageParamRequestList.h */; settings = {ATTRIBUTES = (Public, ); }; };
		4F1E144B21C8E76B00A62E2F /* mavlink_msg_manual_control.h in Headers */ = {isa = PBXBuildFile; fileRef = 4F1E12A221C8E76A00A62E2F /* mavlink_msg_manual_control.h */; settings = {ATTRIBUTES = (Public, ); }; };
		4F1E144C21C8E76B00A62E2F /* MVMessageCameraTrigger.h in Headers */ = {isa = PBXBuildFile; fileRef = 4F1E12A321C8E76A00A62E2F /* MVMessageCameraTrigger.h */; settings = {ATTRIBUTES = (Public, ); }; };
		4F1E144D21C8E76B00A62E2F /* MVMessageSafetySetAllowedArea.h in Headers */ = {isa = PBXBuildFile; fileRef = 4F1E12A421C8E76A00A62E2F /* MVMessageSafetySetAllowedArea.h */; settings = {ATTRIBUTES = (Public, ); }; };
		4F1E144E21C8E76B00A62E2F /* mavlink_msg_statustext.h in Headers */ = {isa = PBXBuildFile; fileRef = 4F1E12A521C8E76A00A62E2F /* mavlink_msg_statustext.h */; settings = {ATTRIBUTES = (Public, ); }; };
		4F1E144F21C8E76B00A62E2F /* version.h in Headers */ = {isa = PBXBuildFile; fileRef = 4F1E12A621C8E76A00A62E2F /* version.h */; settings = {ATTRIBUTES = (Public, ); }; };
		4F1E145021C8E76B00A62E2F /* MVMessageSetPositionTargetLocalNed.m in Sources */ = {isa = PBXBuildFile; fileRef = 4F1E12A721C8E76A00A62E2F /* MVMessageSetPositionTargetLocalNed.m */; };
		4F1E145121C8E76B00A62E2F /* MVMessageHilRcInputsRaw.m in Sources */ = {isa = PBXBuildFile; fileRef = 4F1E12A821C8E76A00A62E2F /* MVMessageHilRcInputsRaw.m */; };
		4F1E145221C8E76B00A62E2F /* MVMessageAttPosMocap.m in Sources */ = {isa = PBXBuildFile; fileRef = 4F1E12A921C8E76A00A62E2F /* MVMessageAttPosMocap.m */; };
		4F1E145321C8E76B00A62E2F /* MVMessageV2Extension.m in Sources */ = {isa = PBXBuildFile; fileRef = 4F1E12AA21C8E76A00A62E2F /* MVMessageV2Extension.m */; };
		4F1E145421C8E76B00A62E2F /* mavlink_msg_global_position_int_cov.h in Headers */ = {isa = PBXBuildFile; fileRef = 4F1E12AB21C8E76A00A62E2F /* mavlink_msg_global_position_int_cov.h */; settings = {ATTRIBUTES = (Public, ); }; };
		4F1E145521C8E76B00A62E2F /* MVMessageSysStatus.m in Sources */ = {isa = PBXBuildFile; fileRef = 4F1E12AC21C8E76A00A62E2F /* MVMessageSysStatus.m */; };
		4F1E145621C8E76B00A62E2F /* MVMessageSetAttitudeTarget.m in Sources */ = {isa = PBXBuildFile; fileRef = 4F1E12AD21C8E76A00A62E2F /* MVMessageSetAttitudeTarget.m */; };
		4F1E145721C8E76B00A62E2F /* mavlink_msg_altitude.h in Headers */ = {isa = PBXBuildFile; fileRef = 4F1E12AE21C8E76A00A62E2F /* mavlink_msg_altitude.h */; settings = {ATTRIBUTES = (Public, ); }; };
		4F1E145821C8E76B00A62E2F /* MVMessageAttitude.m in Sources */ = {isa = PBXBuildFile; fileRef = 4F1E12AF21C8E76A00A62E2F /* MVMessageAttitude.m */; };
		4F1E145921C8E76B00A62E2F /* mavlink_msg_mission_request_int.h in Headers */ = {isa = PBXBuildFile; fileRef = 4F1E12B021C8E76A00A62E2F /* mavlink_msg_mission_request_int.h */; settings = {ATTRIBUTES = (Public, ); }; };
		4F1E145A21C8E76B00A62E2F /* MVMessageRcChannelsScaled.h in Headers */ = {isa = PBXBuildFile; fileRef = 4F1E12B121C8E76A00A62E2F /* MVMessageRcChannelsScaled.h */; settings = {ATTRIBUTES = (Public, ); }; };
		4F1E145B21C8E76B00A62E2F /* MVMessageGpsRawInt.m in Sources */ = {isa = PBXBuildFile; fileRef = 4F1E12B221C8E76A00A62E2F /* MVMessageGpsRawInt.m */; };
		4F1E145C21C8E76B00A62E2F /* mavlink_msg_terrain_report.h in Headers */ = {isa = PBXBuildFile; fileRef = 4F1E12B321C8E76A00A62E2F /* mavlink_msg_terrain_report.h */; settings = {ATTRIBUTES = (Public, ); }; };
		4F1E145D21C8E76B00A62E2F /* mavlink_msg_scaled_pressure2.h in Headers */ = {isa = PBXBuildFile; fileRef = 4F1E12B421C8E76A00A62E2F /* mavlink_msg_scaled_pressure2.h */; settings = {ATTRIBUTES = (Public, ); }; };
		4F1E145E21C8E76B00A62E2F /* mavlink_msg_distance_sensor.h in Headers */ = {isa = PBXBuildFile; fileRef = 4F1E12B521C8E76A00A62E2F /* mavlink_msg_distance_sensor.h */; settings = {ATTRIBUTES = (Public, ); }; };
		4F1E145F21C8E76B00A62E2F /* mavlink_msg_power_status.h in Headers */ = {isa = PBXBuildFile; fileRef = 4F1E12B621C8E76A00A62E2F /* mavlink_msg_power_status.h */; settings = {ATTRIBUTES = (Public, ); }; };
		4F1E146021C8E76B00A62E2F /* mavlink_msg_mission_request.h in Headers */ = {isa = PBXBuildFile; fileRef = 4F1E12B721C8E76A00A62E2F /* mavlink_msg_mission_request.h */; settings = {ATTRIBUTES = (Public, ); }; };
		4F1E146121C8E76B00A62E2F /* mavlink_msg_local_position_ned_cov.h in Headers */ = {isa = PBXBuildFile; fileRef = 4F1E12B821C8E76A00A62E2F /* mavlink_msg_local_position_ned_cov.h */; settings = {ATTRIBUTES = (Public, ); }; };
		4F1E146221C8E76B00A62E2F /* mavlink_msg_set_mode.h in Headers */ = {isa = PBXBuildFile; fileRef = 4F1E12B921C8E76A00A62E2F /* mavlink_msg_set_mode.h */; settings = {ATTRIBUTES = (Public, ); }; };
		4F1E146321C8E76B00A62E2F /* MVMessageNavControllerOutput.h in Headers */ = {isa = PBXBuildFile; fileRef = 4F1E12BA21C8E76A00A62E2F /* MVMessageNavControllerOutput.h */; settings = {ATTRIBUTES = (Public, ); }; };
		4F1E146421C8E76B00A62E2F /* MVMessageNamedValueFloat.h in Headers */ = {isa = PBXBuildFile; fileRef = 4F1E12BB21C8E76A00A62E2F /* MVMessageNamedValueFloat.h */; settings = {ATTRIBUTES = (Public, ); }; };
		4F1E146521C8E76B00A62E2F /* mavlink_msg_named_value_int.h in Headers */ = {isa = PBXBuildFile; fileRef = 4F1E12BC21C8E76A00A62E2F /* mavlink_msg_named_value_int.h */; settings = {ATTRIBUTES = (Public, ); }; };
		4F1E146621C8E76B00A62E2F /* MVMessageGlobalVisionPositionEstimate.h in Headers */ = {isa = PBXBuildFile; fileRef = 4F1E12BD21C8E76A00A62E2F /* MVMessageGlobalVisionPositionEstimate.h */; settings = {ATTRIBUTES = (Public, ); }; };
		4F1E146721C8E76B00A62E2F /* mavlink_msg_data_stream.h in Headers */ = {isa = PBXBuildFile; fileRef = 4F1E12BE21C8E76A00A62E2F /* mavlink_msg_data_stream.h */; settings = {ATTRIBUTES = (Public, ); }; };
		4F1E146821C8E76B00A62E2F /* MVMessageOpticalFlow.h in Headers */ = {isa = PBXBuildFile; fileRef = 4F1E12BF21C8E76A00A62E2F /* MVMessageOpticalFlow.h */; settings = {ATTRIBUTES = (Public, ); }; };
		4F1E146921C8E76B00A62E2F /* MVMessageParamSet.m in Sources */ = {isa = PBXBuildFile; fileRef = 4F1E12C021C8E76A00A62E2F /* MVMessageParamSet.m */; };
		4F1E146A21C8E76B00A62E2F /* mavlink_msg_v2_extension.h in Headers */ = {isa = PBXBuildFile; fileRef = 4F1E12C121C8E76A00A62E2F /* mavlink_msg_v2_extension.h */; settings = {ATTRIBUTES = (Public, ); }; };
		4F1E146B21C8E76B00A62E2F /* MVMessageLogRequestList.m in Sources */ = {isa = PBXBuildFile; fileRef = 4F1E12C221C8E76A00A62E2F /* MVMessageLogRequestList.m */; };
		4F1E146C21C8E76B00A62E2F /* mavlink_msg_serial_control.h in Headers */ = {isa = PBXBuildFile; fileRef = 4F1E12C321C8E76A00A62E2F /* mavlink_msg_serial_control.h */; settings = {ATTRIBUTES = (Public, ); }; };
		4F1E146D21C8E76B00A62E2F /* MVMessageMissionItemInt.h in Headers */ = {isa = PBXBuildFile; fileRef = 4F1E12C421C8E76A00A62E2F /* MVMessageMissionItemInt.h */; settings = {ATTRIBUTES = (Public, ); }; };
		4F1E146E21C8E76B00A62E2F /* MVMessageSetGpsGlobalOrigin.m in Sources */ = {isa = PBXBuildFile; fileRef = 4F1E12C521C8E76A00A62E2F /* MVMessageSetGpsGlobalOrigin.m */; };
		4F1E146F21C8E76B00A62E2F /* MVMessageGpsGlobalOrigin.m in Sources */ = {isa = PBXBuildFile; fileRef = 4F1E12C621C8E76A00A62E2F /* MVMessageGpsGlobalOrigin.m */; };
		4F1E147021C8E76B00A62E2F /* mavlink_msg_named_value_float.h in Headers */ = {isa = PBXBuildFile; fileRef = 4F1E12C721C8E76A00A62E2F /* mavlink_msg_named_value_float.h */; settings = {ATTRIBUTES = (Public, ); }; };
		4F1E147121C8E76B00A62E2F /* mavlink_msg_change_operator_control_ack.h in Headers */ = {isa = PBXBuildFile; fileRef = 4F1E12C821C8E76A00A62E2F /* mavlink_msg_change_operator_control_ack.h */; settings = {ATTRIBUTES = (Public, ); }; };
		4F1E147221C8E76B00A62E2F /* MVMessagePowerStatus.m in Sources */ = {isa = PBXBuildFile; fileRef = 4F1E12C921C8E76A00A62E2F /* MVMessagePowerStatus.m */; };
		4F1E147321C8E76B00A62E2F /* mavlink_msg_message_interval.h in Headers */ = {isa = PBXBuildFile; fileRef = 4F1E12CA21C8E76A00A62E2F /* mavlink_msg_message_interval.h */; settings = {ATTRIBUTES = (Public, ); }; };
		4F1E147421C8E76B00A62E2F /* MVMessageScaledImu.h in Headers */ = {isa = PBXBuildFile; fileRef = 4F1E12CB21C8E76A00A62E2F /* MVMessageScaledImu.h */; settings = {ATTRIBUTES = (Public, ); }; };
		4F1E147521C8E76B00A62E2F /* mavlink_msg_system_time.h in Headers */ = {isa = PBXBuildFile; fileRef = 4F1E12CC21C8E76A00A62E2F /* mavlink_msg_system_time.h */; settings = {ATTRIBUTES = (Public, ); }; };
		4F1E147621C8E76B00A62E2F /* MVMessageScaledImu2.h in Headers */ = {isa = PBXBuildFile; fileRef = 4F1E12CD21C8E76A00A62E2F /* MVMessageScaledImu2.h */; settings = {ATTRIBUTES = (Public, ); }; };
		4F1E147721C8E76B00A62E2F /* MVMessageActuatorControlTarget.m in Sources */ = {isa = PBXBuildFile; fileRef = 4F1E12CE21C8E76A00A62E2F /* MVMessageActuatorControlTarget.m */; };
		4F1E147821C8E76B00A62E2F /* MVMessageMissionCurrent.m in Sources */ = {isa = PBXBuildFile; fileRef = 4F1E12CF21C8E76A00A62E2F /* MVMessageMissionCurrent.m */; };
		4F1E147921C8E76B00A62E2F /* mavlink_msg_request_data_stream.h in Headers */ = {isa = PBXBuildFile; fileRef = 4F1E12D021C8E76A00A62E2F /* mavlink_msg_request_data_stream.h */; settings = {ATTRIBUTES = (Public, ); }; };
		4F1E147A21C8E76B00A62E2F /* MVMessageHilGps.h in Headers */ = {isa = PBXBuildFile; fileRef = 4F1E12D121C8E76A00A62E2F /* MVMessageHilGps.h */; settings = {ATTRIBUTES = (Public, ); }; };
		4F1E147B21C8E76B00A62E2F /* MVMessageTerrainReport.m in Sources */ = {isa = PBXBuildFile; fileRef = 4F1E12D221C8E76A00A62E2F /* MVMessageTerrainReport.m */; };
		4F1E147C21C8E76B00A62E2F /* mavlink_msg_gps_global_origin.h in Headers */ = {isa = PBXBuildFile; fileRef = 4F1E12D321C8E76A00A62E2F /* mavlink_msg_gps_global_origin.h */; settings = {ATTRIBUTES = (Public, ); }; };
		4F1E147D21C8E76B00A62E2F /* MVMessageWindCov.h in Headers */ = {isa = PBXBuildFile; fileRef = 4F1E12D421C8E76A00A62E2F /* MVMessageWindCov.h */; settings = {ATTRIBUTES = (Public, ); }; };
		4F1E147E21C8E76B00A62E2F /* MVMessageTerrainRequest.m in Sources */ = {isa = PBXBuildFile; fileRef = 4F1E12D521C8E76A00A62E2F /* MVMessageTerrainRequest.m */; };
		4F1E147F21C8E76B00A62E2F /* MVMessageDataTransmissionHandshake.m in Sources */ = {isa = PBXBuildFile; fileRef = 4F1E12D621C8E76A00A62E2F /* MVMessageDataTransmissionHandshake.m */; };
		4F1E148021C8E76B00A62E2F /* MVMessageMissionWritePartialList.h in Headers */ = {isa = PBXBuildFile; fileRef = 4F1E12D721C8E76A00A62E2F /* MVMessageMissionWritePartialList.h */; settings = {ATTRIBUTES = (Public, ); }; };
		4F1E148121C8E76B00A62E2F /* MVMessageServoOutputRaw.h in Headers */ = {isa = PBXBuildFile; fileRef = 4F1E12D821C8E76A00A62E2F /* MVMessageServoOutputRaw.h */; settings = {ATTRIBUTES = (Public, ); }; };
		4F1E148221C8E76B00A62E2F /* mavlink_msg_param_request_list.h in Headers */ = {isa = PBXBuildFile; fileRef = 4F1E12D921C8E76A00A62E2F /* mavlink_msg_param_request_list.h */; settings = {ATTRIBUTES = (Public, ); }; };
		4F1E148321C8E76B00A62E2F /* MVMessageVisionSpeedEstimate.h in Headers */ = {isa = PBXBuildFile; fileRef = 4F1E12DA21C8E76A00A62E2F /* MVMessageVisionSpeedEstimate.h */; settings = {ATTRIBUTES = (Public, ); }; };
		4F1E148421C8E76B00A62E2F /* mavlink_msg_terrain_check.h in Headers */ = {isa = PBXBuildFile; fileRef = 4F1E12DB21C8E76A00A62E2F /* mavlink_msg_terrain_check.h */; settings = {ATTRIBUTES = (Public, ); }; };
		4F1E148521C8E76B00A62E2F /* MVMessageMissionRequestList.m in Sources */ = {isa = PBXBuildFile; fileRef = 4F1E12DC21C8E76A00A62E2F /* MVMessageMissionRequestList.m */; };
		4F1E148621C8E76B00A62E2F /* MVMessageHighresImu.h in Headers */ = {isa = PBXBuildFile; fileRef = 4F1E12DD21C8E76A00A62E2F /* MVMessageHighresImu.h */; settings = {ATTRIBUTES = (Public, ); }; };
		4F1E148721C8E76B00A62E2F /* mavlink_msg_local_position_ned_system_global_offset.h in Headers */ = {isa = PBXBuildFile; fileRef = 4F1E12DE21C8E76A00A62E2F /* mavlink_msg_local_position_ned_system_global_offset.h */; settings = {ATTRIBUTES = (Public, ); }; };
		4F1E148821C8E76B00A62E2F /* MVMessageSetPositionTargetGlobalInt.h in Headers */ = {isa = PBXBuildFile; fileRef = 4F1E12DF21C8E76A00A62E2F /* MVMessageSetPositionTargetGlobalInt.h */; settings = {ATTRIBUTES = (Public, ); }; };
		4F1E148921C8E76B00A62E2F /* mavlink_msg_manual_setpoint.h in Headers */ = {isa = PBXBuildFile; fileRef = 4F1E12E021C8E76A00A62E2F /* mavlink_msg_manual_setpoint.h */; settings = {ATTRIBUTES = (Public, ); }; };
		4F1E148A21C8E76B00A62E2F /* mavlink_msg_param_value.h in Headers */ = {isa = PBXBuildFile; fileRef = 4F1E12E121C8E76A00A62E2F /* mavlink_msg_param_value.h */; settings = {ATTRIBUTES = (Public, ); }; };
		4F1E148B21C8E76B00A62E2F /* mavlink_msg_gps_rtk.h in Headers */ = {isa = PBXBuildFile; fileRef = 4F1E12E221C8E76A00A62E2F /* mavlink_msg_gps_rtk.h */; settings = {ATTRIBUTES = (Public, ); }; };
		4F1E148C21C8E76B00A62E2F /* MVMessageAutopilotVersion.m in Sources */ = {isa = PBXBuildFile; fileRef = 4F1E12E321C8E76A00A62E2F /* MVMessageAutopilotVersion.m */; };
		4F1E148D21C8E76B00A62E2F /* MVMessageHighLatency2.h in Headers */ = {isa = PBXBuildFile; fileRef = 4F1E12E421C8E76A00A62E2F /* MVMessageHighLatency2.h */; settings = {ATTRIBUTES = (Public, ); }; };
		4F1E148E21C8E76B00A62E2F /* MVMessageHilSensor.m in Sources */ = {isa = PBXBuildFile; fileRef = 4F1E12E521C8E76A00A62E2F /* MVMessageHilSensor.m */; };
		4F1E148F21C8E76B00A62E2F /* mavlink_msg_log_data.h in Headers */ = {isa = PBXBuildFile; fileRef = 4F1E12E621C8E76A00A62E2F /* mavlink_msg_log_data.h */; settings = {ATTRIBUTES = (Public, ); }; };
		4F1E149021C8E76B00A62E2F /* MVMessageFileTransferProtocol.m in Sources */ = {isa = PBXBuildFile; fileRef = 4F1E12E721C8E76A00A62E2F /* MVMessageFileTransferProtocol.m */; };
		4F1E149121C8E76B00A62E2F /* MVMessageRawImu.h in Headers */ = {isa = PBXBuildFile; fileRef = 4F1E12E821C8E76A00A62E2F /* MVMessageRawImu.h */; settings = {ATTRIBUTES = (Public, ); }; };
		4F1E149221C8E76B00A62E2F /* MVMessageParamValue.m in Sources */ = {isa = PBXBuildFile; fileRef = 4F1E12E921C8E76A00A62E2F /* MVMessageParamValue.m */; };
		4F1E149321C8E76B00A62E2F /* mavlink_msg_log_erase.h in Headers */ = {isa = PBXBuildFile; fileRef = 4F1E12EA21C8E76A00A62E2F /* mavlink_msg_log_erase.h */; settings = {ATTRIBUTES = (Public, ); }; };
		4F1E149421C8E76B00A62E2F /* MVMessageAdsbVehicle.h in Headers */ = {isa = PBXBuildFile; fileRef = 4F1E12EB21C8E76A00A62E2F /* MVMessageAdsbVehicle.h */; settings = {ATTRIBUTES = (Public, ); }; };
		4F1E149521C8E76B00A62E2F /* MVMessageGlobalPositionInt.h in Headers */ = {isa = PBXBuildFile; fileRef = 4F1E12EC21C8E76A00A62E2F /* MVMessageGlobalPositionInt.h */; settings = {ATTRIBUTES = (Public, ); }; };
		4F1E149621C8E76B00A62E2F /* mavlink_msg_extended_sys_state.h in Headers */ = {isa = PBXBuildFile; fileRef = 4F1E12ED21C8E76A00A62E2F /* mavlink_msg_extended_sys_state.h */; settings = {ATTRIBUTES = (Public, ); }; };
		4F1E149721C8E76B00A62E2F /* MVMessagePositionTargetGlobalInt.m in Sources */ = {isa = PBXBuildFile; fileRef = 4F1E12EE21C8E76A00A62E2F /* MVMessagePositionTargetGlobalInt.m */; };
		4F1E149821C8E76B00A62E2F /* mavlink_msg_command_ack.h in Headers */ = {isa = PBXBuildFile; fileRef = 4F1E12EF21C8E76A00A62E2F /* mavlink_msg_command_ack.h */; settings = {ATTRIBUTES = (Public, ); }; };
		4F1E149921C8E76B00A62E2F /* mavlink_msg_command_int.h in Headers */ = {isa = PBXBuildFile; fileRef = 4F1E12F021C8E76A00A62E2F /* mavlink_msg_command_int.h */; settings = {ATTRIBUTES = (Public, ); }; };
		4F1E149A21C8E76B00A62E2F /* mavlink_msg_param_request_read.h in Headers */ = {isa = PBXBuildFile; fileRef = 4F1E12F121C8E76A00A62E2F /* mavlink_msg_param_request_read.h */; settings = {ATTRIBUTES = (Public, ); }; };
		4F1E149B21C8E76B00A62E2F /* MVMessageTerrainData.h in Headers */ = {isa = PBXBuildFile; fileRef = 4F1E12F221C8E76A00A62E2F /* MVMessageTerrainData.h */; settings = {ATTRIBUTES = (Public, ); }; };
		4F1E149C21C8E76B00A62E2F /* MVMessageMissionItemReached.m in Sources */ = {isa = PBXBuildFile; fileRef = 4F1E12F321C8E76A00A62E2F /* MVMessageMissionItemReached.m */; };
		4F1E149D21C8E76B00A62E2F /* MVMessageScaledPressure3.m in Sources */ = {isa = PBXBuildFile; fileRef = 4F1E12F421C8E76A00A62E2F /* MVMessageScaledPressure3.m */; };
		4F1E149E21C8E76B00A62E2F /* MVMessageMissionSetCurrent.m in Sources */ = {isa = PBXBuildFile; fileRef = 4F1E12F521C8E76A00A62E2F /* MVMessageMissionSetCurrent.m */; };
		4F1E149F21C8E76B00A62E2F /* mavlink_msg_mission_item_reached.h in Headers */ = {isa = PBXBuildFile; fileRef = 4F1E12F621C8E76A00A62E2F /* mavlink_msg_mission_item_reached.h */; settings = {ATTRIBUTES = (Public, ); }; };
		4F1E14A021C8E76B00A62E2F /* mavlink_msg_set_position_target_local_ned.h in Headers */ = {isa = PBXBuildFile; fileRef = 4F1E12F721C8E76A00A62E2F /* mavlink_msg_set_position_target_local_ned.h */; settings = {ATTRIBUTES = (Public, ); }; };
		4F1E14A121C8E76B00A62E2F /* mavlink_msg_hil_state_quaternion.h in Headers */ = {isa = PBXBuildFile; fileRef = 4F1E12F821C8E76A00A62E2F /* mavlink_msg_hil_state_quaternion.h */; settings = {ATTRIBUTES = (Public, ); }; };
		4F1E14A221C8E76B00A62E2F /* MVMessageGpsStatus.h in Headers */ = {isa = PBXBuildFile; fileRef = 4F1E12F921C8E76A00A62E2F /* MVMessageGpsStatus.h */; settings = {ATTRIBUTES = (Public, ); }; };
		4F1E14A321C8E76B00A62E2F /* mavlink_msg_vision_position_estimate.h in Headers */ = {isa = PBXBuildFile; fileRef = 4F1E12FA21C8E76A00A62E2F /* mavlink_msg_vision_position_estimate.h */; settings = {ATTRIBUTES = (Public, ); }; };
		4F1E14A421C8E76B00A62E2F /* MVMessageHilStateQuaternion.h in Headers */ = {isa = PBXBuildFile; fileRef = 4F1E12FB21C8E76A00A62E2F /* MVMessageHilStateQuaternion.h */; settings = {ATTRIBUTES = (Public, ); }; };
		4F1E14A521C8E76B00A62E2F /* mavlink_msg_position_target_local_ned.h in Headers */ = {isa = PBXBuildFile; fileRef = 4F1E12FC21C8E76A00A62E2F /* mavlink_msg_position_target_local_ned.h */; settings = {ATTRIBUTES = (Public, ); }; };
		4F1E14A621C8E76B00A62E2F /* MVMessageLocalPositionNed.h in Headers */ = {isa = PBXBuildFile; fileRef = 4F1E12FD21C8E76A00A62E2F /* MVMessageLocalPositionNed.h */; settings = {ATTRIBUTES = (Public, ); }; };
		4F1E14A721C8E76B00A62E2F /* MVMessageRawPressure.h in Headers */ = {isa = PBXBuildFile; fileRef = 4F1E12FE21C8E76A00A62E2F /* MVMessageRawPressure.h */; settings = {ATTRIBUTES = (Public, ); }; };
		4F1E14A821C8E76B00A62E2F /* MVMessageGpsInput.m in Sources */ = {isa = PBXBuildFile; fileRef = 4F1E12FF21C8E76A00A62E2F /* MVMessageGpsInput.m */; };
		4F1E14A921C8E76B00A62E2F /* mavlink_msg_highres_imu.h in Headers */ = {isa = PBXBuildFile; fileRef = 4F1E130021C8E76A00A62E2F /* mavlink_msg_highres_imu.h */; settings = {ATTRIBUTES = (Public, ); }; };
		4F1E14AA21C8E76B00A62E2F /* MVMessageVisionPositionEstimate.m in Sources */ = {isa = PBXBuildFile; fileRef = 4F1E130121C8E76A00A62E2F /* MVMessageVisionPositionEstimate.m */; };
		4F1E14AB21C8E76B00A62E2F /* mavlink.h in Headers */ = {isa = PBXBuildFile; fileRef = 4F1E130221C8E76A00A62E2F /* mavlink.h */; settings = {ATTRIBUTES = (Public, ); }; };
		4F1E14AC21C8E76B00A62E2F /* MVMessageDebug.m in Sources */ = {isa = PBXBuildFile; fileRef = 4F1E130321C8E76A00A62E2F /* MVMessageDebug.m */; };
		4F1E14AD21C8E76B00A62E2F /* MVMessageLogErase.h in Headers */ = {isa = PBXBuildFile; fileRef = 4F1E130421C8E76A00A62E2F /* MVMessageLogErase.h */; settings = {ATTRIBUTES = (Public, ); }; };
		4F1E14AE21C8E76B00A62E2F /* mavlink_msg_attitude_quaternion_cov.h in Headers */ = {isa = PBXBuildFile; fileRef = 4F1E130521C8E76A00A62E2F /* mavlink_msg_attitude_quaternion_cov.h */; settings = {ATTRIBUTES = (Public, ); }; };
		4F1E14AF21C8E76B00A62E2F /* mavlink_msg_hil_optical_flow.h in Headers */ = {isa = PBXBuildFile; fileRef = 4F1E130621C8E76A00A62E2F /* mavlink_msg_hil_optical_flow.h */; settings = {ATTRIBUTES = (Public, ); }; };
		4F1E14B021C8E76B00A62E2F /* MVMessageRcChannelsOverride.h in Headers */ = {isa = PBXBuildFile; fileRef = 4F1E130721C8E76A00A62E2F /* MVMessageRcChannelsOverride.h */; settings = {ATTRIBUTES = (Public, ); }; };
		4F1E14B121C8E76B00A62E2F /* MVMessageLogEntry.m in Sources */ = {isa = PBXBuildFile; fileRef = 4F1E130821C8E76A00A62E2F /* MVMessageLogEntry.m */; };
		4F1E14B221C8E76B00A62E2F /* MVMessageGlobalPositionIntCov.m in Sources */ = {isa = PBXBuildFile; fileRef = 4F1E130921C8E76A00A62E2F /* MVMessageGlobalPositionIntCov.m */; };
		4F1E14B321C8E76B00A62E2F /* MVMessageMissionRequestPartialList.m in Sources */ = {isa = PBXBuildFile; fileRef = 4F1E130A21C8E76A00A62E2F /* MVMessageMissionRequestPartialList.m */; };
		4F1E14B421C8E76B00A62E2F /* MVMessageLogRequestData.h in Headers */ = {isa = PBXBuildFile; fileRef = 4F1E130B21C8E76A00A62E2F /* MVMessageLogRequestData.h */; settings = {ATTRIBUTES = (Public, ); }; };
		4F1E14B521C8E76B00A62E2F /* MVMessageGps2Rtk.h in Headers */ = {isa = PBXBuildFile; fileRef = 4F1E130C21C8E76A00A62E2F /* MVMessageGps2Rtk.h */; settings = {ATTRIBUTES = (Public, ); }; };
		4F1E14B621C8E76B00A62E2F /* mavlink_msg_attitude_target.h in Headers */ = {isa = PBXBuildFile; fileRef = 4F1E130D21C8E76A00A62E2F /* mavlink_msg_attitude_target.h */; settings = {ATTRIBUTES = (Public, ); }; };
		4F1E14B721C8E76B00A62E2F /* mavlink_msg_actuator_control_target.h in Headers */ = {isa = PBXBuildFile; fileRef = 4F1E130E21C8E76A00A62E2F /* mavlink_msg_actuator_control_target.h */; settings = {ATTRIBUTES = (Public, ); }; };
		4F1E14B821C8E76B00A62E2F /* MVMessageAltitude.h in Headers */ = {isa = PBXBuildFile; fileRef = 4F1E130F21C8E76A00A62E2F /* MVMessageAltitude.h */; settings = {ATTRIBUTES = (Public, ); }; };
		4F1E14B921C8E76B00A62E2F /* MVMessageDistanceSensor.h in Headers */ = {isa = PBXBuildFile; fileRef = 4F1E131021C8E76A00A62E2F /* MVMessageDistanceSensor.h */; settings = {ATTRIBUTES = (Public, ); }; };
		4F1E14BA21C8E76B00A62E2F /* mavlink_msg_mission_write_partial_list.h in Headers */ = {isa = PBXBuildFile; fileRef = 4F1E131121C8E76A00A62E2F /* mavlink_msg_mission_write_partial_list.h */; settings = {ATTRIBUTES = (Public, ); }; };
		4F1E14BB21C8E76B00A62E2F /* MVMessageMemoryVect.h in Headers */ = {isa = PBXBuildFile; fileRef = 4F1E131221C8E76A00A62E2F /* MVMessageMemoryVect.h */; settings = {ATTRIBUTES = (Public, ); }; };
		4F1E14BC21C8E76B00A62E2F /* MVMessageCollision.m in Sources */ = {isa = PBXBuildFile; fileRef = 4F1E131321C8E76A00A62E2F /* MVMessageCollision.m */; };
		4F1E14BD21C8E76B00A62E2F /* MVMessageChangeOperatorControl.m in Sources */ = {isa = PBXBuildFile; fileRef = 4F1E131421C8E76A00A62E2F /* MVMessageChangeOperatorControl.m */; };
		4F1E14BE21C8E76B00A62E2F /* MVMessagePositionTargetLocalNed.m in Sources */ = {isa = PBXBuildFile; fileRef = 4F1E131521C8E76A00A62E2F /* MVMessagePositionTargetLocalNed.m */; };
		4F1E14BF21C8E76B00A62E2F /* MVMessageLocalPositionNedSystemGlobalOffset.m in Sources */ = {isa = PBXBuildFile; fileRef = 4F1E131621C8E76A00A62E2F /* MVMessageLocalPositionNedSystemGlobalOffset.m */; };
		4F1E14C021C8E76B00A62E2F /* MVMessageRcChannelsRaw.h in Headers */ = {isa = PBXBuildFile; fileRef = 4F1E131721C8E76A00A62E2F /* MVMessageRcChannelsRaw.h */; settings = {ATTRIBUTES = (Public, ); }; };
		4F1E14C121C8E76B00A62E2F /* MVMessageMessageInterval.h in Headers */ = {isa = PBXBuildFile; fileRef = 4F1E131821C8E76A00A62E2F /* MVMessageMessageInterval.h */; settings = {ATTRIBUTES = (Public, ); }; };
		4F1E14C221C8E76B00A62E2F /* MVMessageParamMapRc.h in Headers */ = {isa = PBXBuildFile; fileRef = 4F1E131921C8E76A00A62E2F /* MVMessageParamMapRc.h */; settings = {ATTRIBUTES = (Public, ); }; };
		4F1E14C321C8E76B00A62E2F /* MVMessageLogRequestEnd.h in Headers */ = {isa = PBXBuildFile; fileRef = 4F1E131A21C8E76A00A62E2F /* MVMessageLogRequestEnd.h */; settings = {ATTRIBUTES = (Public, ); }; };
		4F1E14C421C8E76B00A62E2F /* MVMessageExtendedSysState.h in Headers */ = {isa = PBXBuildFile; fileRef = 4F1E131B21C8E76A00A62E2F /* MVMessageExtendedSysState.h */; settings = {ATTRIBUTES = (Public, ); }; };
		4F1E14C521C8E76B00A62E2F /* MVMessageScaledImu3.m in Sources */ = {isa = PBXBuildFile; fileRef = 4F1E131C21C8E76A00A62E2F /* MVMessageScaledImu3.m */; };
		4F1E14C621C8E76B00A62E2F /* MVMessageHilControls.h in Headers */ = {isa = PBXBuildFile; fileRef = 4F1E131D21C8E76A00A62E2F /* MVMessageHilControls.h */; settings = {ATTRIBUTES = (Public, ); }; };
		4F1E14C721C8E76B00A62E2F /* MVMessageHeartbeat.m in Sources */ = {isa = PBXBuildFile; fileRef = 4F1E131E21C8E76A00A62E2F /* MVMessageHeartbeat.m */; };
		4F1E14C821C8E76B00A62E2F /* MVMessageLocalPositionNedCov.m in Sources */ = {isa = PBXBuildFile; fileRef = 4F1E131F21C8E76A00A62E2F /* MVMessageLocalPositionNedCov.m */; };
		4F1E14C921C8E76B00A62E2F /* MVMessageParamRequestRead.h in Headers */ = {isa = PBXBuildFile; fileRef = 4F1E132021C8E76A00A62E2F /* MVMessageParamRequestRead.h */; settings = {ATTRIBUTES = (Public, ); }; };
		4F1E14CA21C8E76B00A62E2F /* MVMessageHilState.m in Sources */ = {isa = PBXBuildFile; fileRef = 4F1E132121C8E76A00A62E2F /* MVMessageHilState.m */; };
		4F1E14CB21C8E76B00A62E2F /* MVMessageGps2Raw.m in Sources */ = {isa = PBXBuildFile; fileRef = 4F1E132221C8E76A00A62E2F /* MVMessageGps2Raw.m */; };
		4F1E14CC21C8E76B00A62E2F /* mavlink_msg_att_pos_mocap.h in Headers */ = {isa = PBXBuildFile; fileRef = 4F1E132321C8E76A00A62E2F /* mavlink_msg_att_pos_mocap.h */; settings = {ATTRIBUTES = (Public, ); }; };
		4F1E14CD21C8E76B00A62E2F /* mavlink_msg_terrain_request.h in Headers */ = {isa = PBXBuildFile; fileRef = 4F1E132421C8E76A00A62E2F /* mavlink_msg_terrain_request.h */; settings = {ATTRIBUTES = (Public, ); }; };
		4F1E14CE21C8E76B00A62E2F /* MVMessageGpsRtcmData.m in Sources */ = {isa = PBXBuildFile; fileRef = 4F1E132521C8E76A00A62E2F /* MVMessageGpsRtcmData.m */; };
		4F1E14CF21C8E76B00A62E2F /* MVMessageMissionAck.h in Headers */ = {isa = PBXBuildFile; fileRef = 4F1E132621C8E76A00A62E2F /* MVMessageMissionAck.h */; settings = {ATTRIBUTES = (Public, ); }; };
		4F1E14D021C8E76B00A62E2F /* mavlink_msg_hil_gps.h in Headers */ = {isa = PBXBuildFile; fileRef = 4F1E132721C8E76A00A62E2F /* mavlink_msg_hil_gps.h */; settings = {ATTRIBUTES = (Public, ); }; };
		4F1E14D121C8E76B00A62E2F /* MVMessageTerrainCheck.h in Headers */ = {isa = PBXBuildFile; fileRef = 4F1E132821C8E76A00A62E2F /* MVMessageTerrainCheck.h */; settings = {ATTRIBUTES = (Public, ); }; };
		4F1E14D221C8E76B00A62E2F /* mavlink_msg_memory_vect.h in Headers */ = {isa = PBXBuildFile; fileRef = 4F1E132921C8E76A00A62E2F /* mavlink_msg_memory_vect.h */; settings = {ATTRIBUTES = (Public, ); }; };
		4F1E14D321C8E76B00A62E2F /* MVMessageMissionRequestInt.h in Headers */ = {isa = PBXBuildFile; fileRef = 4F1E132A21C8E76A00A62E2F /* MVMessageMissionRequestInt.h */; settings = {ATTRIBUTES = (Public, ); }; };
		4F1E14D421C8E76B00A62E2F /* MVMessageSetMode.h in Headers */ = {isa = PBXBuildFile; fileRef = 4F1E132B21C8E76A00A62E2F /* MVMessageSetMode.h */; settings = {ATTRIBUTES = (Public, ); }; };
		4F1E14D521C8E76B00A62E2F /* mavlink_msg_log_request_data.h in Headers */ = {isa = PBXBuildFile; fileRef = 4F1E132C21C8E76A00A62E2F /* mavlink_msg_log_request_data.h */; settings = {ATTRIBUTES = (Public, ); }; };
		4F1E14D621C8E76B00A62E2F /* MVMessageRadioStatus.m in Sources */ = {isa = PBXBuildFile; fileRef = 4F1E132D21C8E76A00A62E2F /* MVMessageRadioStatus.m */; };
		4F1E14D721C8E76B00A62E2F /* MVMessageVibration.m in Sources */ = {isa = PBXBuildFile; fileRef = 4F1E132E21C8E76A00A62E2F /* MVMessageVibration.m */; };
		4F1E14D821C8E76B00A62E2F /* mavlink_msg_hil_rc_inputs_raw.h in Headers */ = {isa = PBXBuildFile; fileRef = 4F1E132F21C8E76A00A62E2F /* mavlink_msg_hil_rc_inputs_raw.h */; settings = {ATTRIBUTES = (Public, ); }; };
		4F1E14D921C8E76B00A62E2F /* MVMessagePing.h in Headers */ = {isa = PBXBuildFile; fileRef = 4F1E133021C8E76A00A62E2F /* MVMessagePing.h */; settings = {ATTRIBUTES = (Public, ); }; };
		4F1E14DA21C8E76B00A62E2F /* MVMessageOpticalFlowRad.h in Headers */ = {isa = PBXBuildFile; fileRef = 4F1E133121C8E76A00A62E2F /* MVMessageOpticalFlowRad.h */; settings = {ATTRIBUTES = (Public, ); }; };
		4F1E14DB21C8E76B00A62E2F /* MVMessageAttitudeQuaternionCov.h in Headers */ = {isa = PBXBuildFile; fileRef = 4F1E133221C8E76A00A62E2F /* MVMessageAttitudeQuaternionCov.h */; settings = {ATTRIBUTES = (Public, ); }; };
		4F1E14DC21C8E76B00A62E2F /* MVMessageLandingTarget.m in Sources */ = {isa = PBXBuildFile; fileRef = 4F1E133321C8E76A00A62E2F /* MVMessageLandingTarget.m */; };
		4F1E14DD21C8E76B00A62E2F /* MVMessageSystemTime.h in Headers */ = {isa = PBXBuildFile; fileRef = 4F1E133421C8E76A00A62E2F /* MVMessageSystemTime.h */; settings = {ATTRIBUTES = (Public, ); }; };
		4F1E14DE21C8E76B00A62E2F /* mavlink_msg_resource_request.h in Headers */ = {isa = PBXBuildFile; fileRef = 4F1E133521C8E76A00A62E2F /* mavlink_msg_resource_request.h */; settings = {ATTRIBUTES = (Public, ); }; };
		4F1E14DF21C8E76B00A62E2F /* MVMessageCommandLong.m in Sources */ = {isa = PBXBuildFile; fileRef = 4F1E133621C8E76A00A62E2F /* MVMessageCommandLong.m */; };
		4F1E14E021C8E76B00A62E2F /* MVMessageNamedValueInt.m in Sources */ = {isa = PBXBuildFile; fileRef = 4F1E133721C8E76A00A62E2F /* MVMessageNamedValueInt.m */; };
		4F1E14E121C8E76B00A62E2F /* MVMessageLogData.h in Headers */ = {isa = PBXBuildFile; fileRef = 4F1E133821C8E76A00A62E2F /* MVMessageLogData.h */; settings = {ATTRIBUTES = (Public, ); }; };
		4F1E14E221C8E76B00A62E2F /* mavlink_msg_scaled_imu3.h in Headers */ = {isa = PBXBuildFile; fileRef = 4F1E133921C8E76A00A62E2F /* mavlink_msg_scaled_imu3.h */; settings = {ATTRIBUTES = (Public, ); }; };
		4F1E14E321C8E76B00A62E2F /* MVMessageManualControl.m in Sources */ = {isa = PBXBuildFile; fileRef = 4F1E133A21C8E76A00A62E2F /* MVMessageManualControl.m */; };
		4F1E14E421C8E76B00A62E2F /* MVMessageResourceRequest.h in Headers */ = {isa = PBXBuildFile; fileRef = 4F1E133B21C8E76A00A62E2F /* MVMessageResourceRequest.h */; settings = {ATTRIBUTES = (Public, ); }; };
		4F1E14E521C8E76B00A62E2F /* MVMessageBatteryStatus.h in Headers */ = {isa = PBXBuildFile; fileRef = 4F1E133C21C8E76A00A62E2F /* MVMessageBatteryStatus.h */; settings = {ATTRIBUTES = (Public, ); }; };
		4F1E14E621C8E76B00A62E2F /* mavlink_msg_vicon_position_estimate.h in Headers */ = {isa = PBXBuildFile; fileRef = 4F1E133D21C8E76A00A62E2F /* mavlink_msg_vicon_position_estimate.h */; settings = {ATTRIBUTES = (Public, ); }; };
		4F1E14E721C8E76B00A62E2F /* MVMessageGpsRtk.m in Sources */ = {isa = PBXBuildFile; fileRef = 4F1E133E21C8E76A00A62E2F /* MVMessageGpsRtk.m */; };
		4F1E14E821C8E76B00A62E2F /* MVMessageControlSystemState.h in Headers */ = {isa = PBXBuildFile; fileRef = 4F1E133F21C8E76A00A62E2F /* MVMessageControlSystemState.h */; settings = {ATTRIBUTES = (Public, ); }; };
		4F1E14E921C8E76B00A62E2F /* MVMessageSetActuatorControlTarget.h in Headers */ = {isa = PBXBuildFile; fileRef = 4F1E134021C8E76A00A62E2F /* MVMessageSetActuatorControlTarget.h */; settings = {ATTRIBUTES = (Public, ); }; };
		4F1E14EA21C8E76B00A62E2F /* MVCommonMessages.h in Headers */ = {isa = PBXBuildFile; fileRef = 4F1E134121C8E76A00A62E2F /* MVCommonMessages.h */; settings = {ATTRIBUTES = (Public, ); }; };
		4F1E14EB21C8E76B00A62E2F /* MVMessageSafetySetAllowedArea.m in Sources */ = {isa = PBXBuildFile; fileRef = 4F1E134221C8E76A00A62E2F /* MVMessageSafetySetAllowedArea.m */; };
		4F1E14EC21C8E76B00A62E2F /* MVMessageCameraTrigger.m in Sources */ = {isa = PBXBuildFile; fileRef = 4F1E134321C8E76A00A62E2F /* MVMessageCameraTrigger.m */; };
		4F1E14ED21C8E76B00A62E2F /* MVMessageScaledPressure.m in Sources */ = {isa = PBXBuildFile; fileRef = 4F1E134421C8E76A00A62E2F /* MVMessageScaledPressure.m */; };
		4F1E14EE21C8E76B00A62E2F /* MVMessageParamRequestList.m in Sources */ = {isa = PBXBuildFile; fileRef = 4F1E134521C8E76A00A62E2F /* MVMessageParamRequestList.m */; };
		4F1E14EF21C8E76B00A62E2F /* mavlink_msg_rc_channels_override.h in Headers */ = {isa = PBXBuildFile; fileRef = 4F1E134621C8E76A00A62E2F /* mavlink_msg_rc_channels_override.h */; settings = {ATTRIBUTES = (Public, ); }; };
		4F1E14F021C8E76B00A62E2F /* MVMessageHomePosition.h in Headers */ = {isa = PBXBuildFile; fileRef = 4F1E134721C8E76A00A62E2F /* MVMessageHomePosition.h */; settings = {ATTRIBUTES = (Public, ); }; };
		4F1E14F121C8E76B00A62E2F /* MVMessageHilOpticalFlow.h in Headers */ = {isa = PBXBuildFile; fileRef = 4F1E134821C8E76A00A62E2F /* MVMessageHilOpticalFlow.h */; settings = {ATTRIBUTES = (Public, ); }; };
		4F1E14F221C8E76B00A62E2F /* MVMessageAttitudeTarget.h in Headers */ = {isa = PBXBuildFile; fileRef = 4F1E134921C8E76A00A62E2F /* MVMessageAttitudeTarget.h */; settings = {ATTRIBUTES = (Public, ); }; };
		4F1E14F321C8E76B00A62E2F /* MVMessageAuthKey.m in Sources */ = {isa = PBXBuildFile; fileRef = 4F1E134A21C8E76A00A62E2F /* MVMessageAuthKey.m */; };
		4F1E14F421C8E76B00A62E2F /* mavlink_msg_global_position_int.h in Headers */ = {isa = PBXBuildFile; fileRef = 4F1E134B21C8E76A00A62E2F /* mavlink_msg_global_position_int.h */; settings = {ATTRIBUTES = (Public, ); }; };
		4F1E14F521C8E76B00A62E2F /* MVMessageMissionClearAll.h in Headers */ = {isa = PBXBuildFile; fileRef = 4F1E134C21C8E76A00A62E2F /* MVMessageMissionClearAll.h */; settings = {ATTRIBUTES = (Public, ); }; };
		4F1E14F621C8E76B00A62E2F /* MVMessageManualSetpoint.h in Headers */ = {isa = PBXBuildFile; fileRef = 4F1E134D21C8E76A00A62E2F /* MVMessageManualSetpoint.h */; settings = {ATTRIBUTES = (Public, ); }; };
		4F1E14F721C8E76B00A62E2F /* MVMessageHilActuatorControls.m in Sources */ = {isa = PBXBuildFile; fileRef = 4F1E134E21C8E76A00A62E2F /* MVMessageHilActuatorControls.m */; };
		4F1E14F821C8E76B00A62E2F /* MVMessageChangeOperatorControlAck.h in Headers */ = {isa = PBXBuildFile; fileRef = 4F1E134F21C8E76A00A62E2F /* MVMessageChangeOperatorControlAck.h */; settings = {ATTRIBUTES = (Public, ); }; };
		4F1E14F921C8E76B00A62E2F /* mavlink_msg_mission_current.h in Headers */ = {isa = PBXBuildFile; fileRef = 4F1E135021C8E76A00A62E2F /* mavlink_msg_mission_current.h */; settings = {ATTRIBUTES = (Public, ); }; };
		4F1E14FA21C8E76B00A62E2F /* MVMessageEstimatorStatus.h in Headers */ = {isa = PBXBuildFile; fileRef = 4F1E135121C8E76A00A62E2F /* MVMessageEstimatorStatus.h */; settings = {ATTRIBUTES = (Public, ); }; };
		4F1E14FB21C8E76B00A62E2F /* mavlink_msg_encapsulated_data.h in Headers */ = {isa = PBXBuildFile; fileRef = 4F1E135221C8E76A00A62E2F /* mavlink_msg_encapsulated_data.h */; settings = {ATTRIBUTES = (Public, ); }; };
		4F1E14FC21C8E76B00A62E2F /* mavlink_msg_set_gps_global_origin.h in Headers */ = {isa = PBXBuildFile; fileRef = 4F1E135321C8E76A00A62E2F /* mavlink_msg_set_gps_global_origin.h */; settings = {ATTRIBUTES = (Public, ); }; };
		4F1E14FD21C8E76B00A62E2F /* MVMessageHighLatency.m in Sources */ = {isa = PBXBuildFile; fileRef = 4F1E135421C8E76A00A62E2F /* MVMessageHighLatency.m */; };
		4F1E14FE21C8E76B00A62E2F /* MVMessageSerialControl.h in Headers */ = {isa = PBXBuildFile; fileRef = 4F1E135521C8E76A00A62E2F /* MVMessageSerialControl.h */; settings = {ATTRIBUTES = (Public, ); }; };
		4F1E14FF21C8E76B00A62E2F /* mavlink_msg_high_latency.h in Headers */ = {isa = PBXBuildFile; fileRef = 4F1E135621C8E76A00A62E2F /* mavlink_msg_high_latency.h */; settings = {ATTRIBUTES = (Public, ); }; };
		4F1E150021C8E76B00A62E2F /* MVMessageAttitudeQuaternion.m in Sources */ = {isa = PBXBuildFile; fileRef = 4F1E135721C8E76A00A62E2F /* MVMessageAttitudeQuaternion.m */; };
		4F1E150121C8E76B00A62E2F /* mavlink_msg_gps2_rtk.h in Headers */ = {isa = PBXBuildFile; fileRef = 4F1E135821C8E76A00A62E2F /* mavlink_msg_gps2_rtk.h */; settings = {ATTRIBUTES = (Public, ); }; };
		4F1E150221C8E76B00A62E2F /* mavlink_msg_hil_controls.h in Headers */ = {isa = PBXBuildFile; fileRef = 4F1E135921C8E76A00A62E2F /* mavlink_msg_hil_controls.h */; settings = {ATTRIBUTES = (Public, ); }; };
		4F1E150321C8E76B00A62E2F /* MVMessageScaledPressure2.m in Sources */ = {isa = PBXBuildFile; fileRef = 4F1E135A21C8E76A00A62E2F /* MVMessageScaledPressure2.m */; };
		4F1E150421C8E76B00A62E2F /* MVMessageMissionRequest.m in Sources */ = {isa = PBXBuildFile; fileRef = 4F1E135B21C8E76A00A62E2F /* MVMessageMissionRequest.m */; };
		4F1E150521C8E76B00A62E2F /* MVMessageSafetyAllowedArea.h in Headers */ = {isa = PBXBuildFile; fileRef = 4F1E135C21C8E76A00A62E2F /* MVMessageSafetyAllowedArea.h */; settings = {ATTRIBUTES = (Public, ); }; };
		4F1E150621C8E76B00A62E2F /* MVMessageDebugVect.m in Sources */ = {isa = PBXBuildFile; fileRef = 4F1E135D21C8E76A00A62E2F /* MVMessageDebugVect.m */; };
		4F1E150721C8E76B00A62E2F /* common.h in Headers */ = {isa = PBXBuildFile; fileRef = 4F1E135E21C8E76A00A62E2F /* common.h */; settings = {ATTRIBUTES = (Public, ); }; };
		4F1E150821C8E76B00A62E2F /* MVMessageMissionItem.h in Headers */ = {isa = PBXBuildFile; fileRef = 4F1E135F21C8E76A00A62E2F /* MVMessageMissionItem.h */; settings = {ATTRIBUTES = (Public, ); }; };
		4F1E150921C8E76B00A62E2F /* MVMessageCommandAck.h in Headers */ = {isa = PBXBuildFile; fileRef = 4F1E136021C8E76A00A62E2F /* MVMessageCommandAck.h */; settings = {ATTRIBUTES = (Public, ); }; };
		4F1E150A21C8E76B00A62E2F /* MVMessageRequestDataStream.m in Sources */ = {isa = PBXBuildFile; fileRef = 4F1E136121C8E76A00A62E2F /* MVMessageRequestDataStream.m */; };
		4F1E150B21C8E76B00A62E2F /* mavlink_msg_param_map_rc.h in Headers */ = {isa = PBXBuildFile; fileRef = 4F1E136221C8E76A00A62E2F /* mavlink_msg_param_map_rc.h */; settings = {ATTRIBUTES = (Public, ); }; };
		4F1E150C21C8E76B00A62E2F /* MVMessageCommandInt.h in Headers */ = {isa = PBXBuildFile; fileRef = 4F1E136321C8E76A00A62E2F /* MVMessageCommandInt.h */; settings = {ATTRIBUTES = (Public, ); }; };
		4F1E150D21C8E76B00A62E2F /* mavlink_msg_set_home_position.h in Headers */ = {isa = PBXBuildFile; fileRef = 4F1E136421C8E76A00A62E2F /* mavlink_msg_set_home_position.h */; settings = {ATTRIBUTES = (Public, ); }; };
		4F1E150E21C8E76B00A62E2F /* MVMessageSetHomePosition.h in Headers */ = {isa = PBXBuildFile; fileRef = 4F1E136521C8E76A00A62E2F /* MVMessageSetHomePosition.h */; settings = {ATTRIBUTES = (Public, ); }; };
		4F1E150F21C8E76B00A62E2F /* MVMessageTimesync.h in Headers */ = {isa = PBXBuildFile; fileRef = 4F1E136621C8E76A00A62E2F /* MVMessageTimesync.h */; settings = {ATTRIBUTES = (Public, ); }; };
		4F1E151021C8E76C00A62E2F /* mavlink_msg_battery_status.h in Headers */ = {isa = PBXBuildFile; fileRef = 4F1E136721C8E76A00A62E2F /* mavlink_msg_battery_status.h */; settings = {ATTRIBUTES = (Public, ); }; };
		4F1E151121C8E76C00A62E2F /* MVMessageGpsInjectData.h in Headers */ = {isa = PBXBuildFile; fileRef = 4F1E136821C8E76A00A62E2F /* MVMessageGpsInjectData.h */; settings = {ATTRIBUTES = (Public, ); }; };
		4F1E151221C8E76C00A62E2F /* mavlink_msg_gps_raw_int.h in Headers */ = {isa = PBXBuildFile; fileRef = 4F1E136921C8E76A00A62E2F /* mavlink_msg_gps_raw_int.h */; settings = {ATTRIBUTES = (Public, ); }; };
		4F1E151321C8E76C00A62E2F /* MVMessageRcChannels.h in Headers */ = {isa = PBXBuildFile; fileRef = 4F1E136A21C8E76A00A62E2F /* MVMessageRcChannels.h */; settings = {ATTRIBUTES = (Public, ); }; };
		4F1E151421C8E76C00A62E2F /* MVMessageVfrHud.h in Headers */ = {isa = PBXBuildFile; fileRef = 4F1E136B21C8E76A00A62E2F /* MVMessageVfrHud.h */; settings = {ATTRIBUTES = (Public, ); }; };
		4F1E151521C8E76C00A62E2F /* MVMessageViconPositionEstimate.h in Headers */ = {isa = PBXBuildFile; fileRef = 4F1E136C21C8E76A00A62E2F /* MVMessageViconPositionEstimate.h */; settings = {ATTRIBUTES = (Public, ); }; };
		4F1E151621C8E76C00A62E2F /* mavlink_msg_local_position_ned.h in Headers */ = {isa = PBXBuildFile; fileRef = 4F1E136D21C8E76A00A62E2F /* mavlink_msg_local_position_ned.h */; settings = {ATTRIBUTES = (Public, ); }; };
		4F1E151721C8E76C00A62E2F /* MVMessageFollowTarget.h in Headers */ = {isa = PBXBuildFile; fileRef = 4F1E136E21C8E76A00A62E2F /* MVMessageFollowTarget.h */; settings = {ATTRIBUTES = (Public, ); }; };
		4F1E151821C8E76C00A62E2F /* MVMessageEncapsulatedData.m in Sources */ = {isa = PBXBuildFile; fileRef = 4F1E136F21C8E76A00A62E2F /* MVMessageEncapsulatedData.m */; };
		4F1E151921C8E76C00A62E2F /* MVMessageMissionCount.m in Sources */ = {isa = PBXBuildFile; fileRef = 4F1E137021C8E76A00A62E2F /* MVMessageMissionCount.m */; };
		4F1E151A21C8E76C00A62E2F /* MVMessageDataStream.m in Sources */ = {isa = PBXBuildFile; fileRef = 4F1E137121C8E76A00A62E2F /* MVMessageDataStream.m */; };
		4F1E151B21C8E76C00A62E2F /* MVMessageSimState.h in Headers */ = {isa = PBXBuildFile; fileRef = 4F1E137221C8E76A00A62E2F /* MVMessageSimState.h */; settings = {ATTRIBUTES = (Public, ); }; };
		4F1E151C21C8E76C00A62E2F /* MVMessageStatustext.m in Sources */ = {isa = PBXBuildFile; fileRef = 4F1E137321C8E76A00A62E2F /* MVMessageStatustext.m */; };
		4F1E151D21C8E76C00A62E2F /* MVMessageHighresImu.m in Sources */ = {isa = PBXBuildFile; fileRef = 4F1E137421C8E76A00A62E2F /* MVMessageHighresImu.m */; };
		4F1E151E21C8E76C00A62E2F /* MVMessageSetPositionTargetGlobalInt.m in Sources */ = {isa = PBXBuildFile; fileRef = 4F1E137521C8E76A00A62E2F /* MVMessageSetPositionTargetGlobalInt.m */; };
		4F1E151F21C8E76C00A62E2F /* MVMessageVisionSpeedEstimate.m in Sources */ = {isa = PBXBuildFile; fileRef = 4F1E137621C8E76A00A62E2F /* MVMessageVisionSpeedEstimate.m */; };
		4F1E152021C8E76C00A62E2F /* MVMessageMissionRequestList.h in Headers */ = {isa = PBXBuildFile; fileRef = 4F1E137721C8E76A00A62E2F /* MVMessageMissionRequestList.h */; settings = {ATTRIBUTES = (Public, ); }; };
		4F1E152121C8E76C00A62E2F /* MVMessageWindCov.m in Sources */ = {isa = PBXBuildFile; fileRef = 4F1E137821C8E76A00A62E2F /* MVMessageWindCov.m */; };
		4F1E152221C8E76C00A62E2F /* MVMessageTerrainRequest.h in Headers */ = {isa = PBXBuildFile; fileRef = 4F1E137921C8E76A00A62E2F /* MVMessageTerrainRequest.h */; settings = {ATTRIBUTES = (Public, ); }; };
		4F1E152321C8E76C00A62E2F /* testsuite.h in Headers */ = {isa = PBXBuildFile; fileRef = 4F1E137A21C8E76A00A62E2F /* testsuite.h */; settings = {ATTRIBUTES = (Public, ); }; };
		4F1E152421C8E76C00A62E2F /* MVMessageServoOutputRaw.m in Sources */ = {isa = PBXBuildFile; fileRef = 4F1E137B21C8E76A00A62E2F /* MVMessageServoOutputRaw.m */; };
		4F1E152521C8E76C00A62E2F /* MVMessageMissionWritePartialList.m in Sources */ = {isa = PBXBuildFile; fileRef = 4F1E137C21C8E76A00A62E2F /* MVMessageMissionWritePartialList.m */; };
		4F1E152621C8E76C00A62E2F /* MVMessageDataTransmissionHandshake.h in Headers */ = {isa = PBXBuildFile; fileRef = 4F1E137D21C8E76A00A62E2F /* MVMessageDataTransmissionHandshake.h */; settings = {ATTRIBUTES = (Public, ); }; };
		4F1E152721C8E76C00A62E2F /* mavlink_msg_home_position.h in Headers */ = {isa = PBXBuildFile; fileRef = 4F1E137E21C8E76A00A62E2F /* mavlink_msg_home_position.h */; settings = {ATTRIBUTES = (Public, ); }; };
		4F1E152821C8E76C00A62E2F /* MVMessageTerrainReport.h in Headers */ = {isa = PBXBuildFile; fileRef = 4F1E137F21C8E76A00A62E2F /* MVMessageTerrainReport.h */; settings = {ATTRIBUTES = (Public, ); }; };
		4F1E152921C8E76C00A62E2F /* mavlink_msg_change_operator_control.h in Headers */ = {isa = PBXBuildFile; fileRef = 4F1E138021C8E76A00A62E2F /* mavlink_msg_change_operator_control.h */; settings = {ATTRIBUTES = (Public, ); }; };
		4F1E152A21C8E76C00A62E2F /* MVMessageHilGps.m in Sources */ = {isa = PBXBuildFile; fileRef = 4F1E138121C8E76A00A62E2F /* MVMessageHilGps.m */; };
		4F1E152B21C8E76C00A62E2F /* MVMessageScaledImu2.m in Sources */ = {isa = PBXBuildFile; fileRef = 4F1E138221C8E76A00A62E2F /* MVMessageScaledImu2.m */; };
		4F1E152C21C8E76C00A62E2F /* MVMessageMissionCurrent.h in Headers */ = {isa = PBXBuildFile; fileRef = 4F1E138321C8E76A00A62E2F /* MVMessageMissionCurrent.h */; settings = {ATTRIBUTES = (Public, ); }; };
		4F1E152D21C8E76C00A62E2F /* MVMessageActuatorControlTarget.h in Headers */ = {isa = PBXBuildFile; fileRef = 4F1E138421C8E76A00A62E2F /* MVMessageActuatorControlTarget.h */; settings = {ATTRIBUTES = (Public, ); }; };
		4F1E152E21C8E76C00A62E2F /* mavlink_msg_set_actuator_control_target.h in Headers */ = {isa = PBXBuildFile; fileRef = 4F1E138521C8E76A00A62E2F /* mavlink_msg_set_actuator_control_target.h */; settings = {ATTRIBUTES = (Public, ); }; };
		4F1E152F21C8E76C00A62E2F /* MVMessageScaledImu.m in Sources */ = {isa = PBXBuildFile; fileRef = 4F1E138621C8E76A00A62E2F /* MVMessageScaledImu.m */; };
		4F1E153021C8E76C00A62E2F /* mavlink_msg_safety_set_allowed_area.h in Headers */ = {isa = PBXBuildFile; fileRef = 4F1E138721C8E76A00A62E2F /* mavlink_msg_safety_set_allowed_area.h */; settings = {ATTRIBUTES = (Public, ); }; };
		4F1E153121C8E76C00A62E2F /* MVMessageMissionItemInt.m in Sources */ = {isa = PBXBuildFile; fileRef = 4F1E138821C8E76A00A62E2F /* MVMessageMissionItemInt.m */; };
		4F1E153221C8E76C00A62E2F /* MVMessageSetGpsGlobalOrigin.h in Headers */ = {isa = PBXBuildFile; fileRef = 4F1E138921C8E76A00A62E2F /* MVMessageSetGpsGlobalOrigin.h */; settings = {ATTRIBUTES = (Public, ); }; };
		4F1E153321C8E76C00A62E2F /* mavlink_msg_landing_target.h in Headers */ = {isa = PBXBuildFile; fileRef = 4F1E138A21C8E76A00A62E2F /* mavlink_msg_landing_target.h */; settings = {ATTRIBUTES = (Public, ); }; };
		4F1E153421C8E76C00A62E2F /* MVMessageGpsGlobalOrigin.h in Headers */ = {isa = PBXBuildFile; fileRef = 4F1E138B21C8E76A00A62E2F /* MVMessageGpsGlobalOrigin.h */; settings = {ATTRIBUTES = (Public, ); }; };
		4F1E153521C8E76C00A62E2F /* MVMessagePowerStatus.h in Headers */ = {isa = PBXBuildFile; fileRef = 4F1E138C21C8E76A00A62E2F /* MVMessagePowerStatus.h */; settings = {ATTRIBUTES = (Public, ); }; };
		4F1E153621C8E76C00A62E2F /* MVMessageLogRequestList.h in Headers */ = {isa = PBXBuildFile; fileRef = 4F1E138D21C8E76A00A62E2F /* MVMessageLogRequestList.h */; settings = {ATTRIBUTES = (Public, ); }; };
		4F1E153721C8E76C00A62E2F /* MVMessageParamSet.h in Headers */ = {isa = PBXBuildFile; fileRef = 4F1E138E21C8E76A00A62E2F /* MVMessageParamSet.h */; settings = {ATTRIBUTES = (Public, ); }; };
		4F1E153821C8E76C00A62E2F /* MVMessageOpticalFlow.m in Sources */ = {isa = PBXBuildFile; fileRef = 4F1E138F21C8E76A00A62E2F /* MVMessageOpticalFlow.m */; };
		4F1E153921C8E76C00A62E2F /* mavlink_msg_servo_output_raw.h in Headers */ = {isa = PBXBuildFile; fileRef = 4F1E139021C8E76A00A62E2F /* mavlink_msg_servo_output_raw.h */; settings = {ATTRIBUTES = (Public, ); }; };
		4F1E153A21C8E76C00A62E2F /* MVMessageNamedValueFloat.m in Sources */ = {isa = PBXBuildFile; fileRef = 4F1E139121C8E76A00A62E2F /* MVMessageNamedValueFloat.m */; };
		4F1E153B21C8E76C00A62E2F /* MVMessageGlobalVisionPositionEstimate.m in Sources */ = {isa = PBXBuildFile; fileRef = 4F1E139221C8E76A00A62E2F /* MVMessageGlobalVisionPositionEstimate.m */; };
		4F1E153C21C8E76C00A62E2F /* mavlink_msg_log_request_list.h in Headers */ = {isa = PBXBuildFile; fileRef = 4F1E139321C8E76A00A62E2F /* mavlink_msg_log_request_list.h */; settings = {ATTRIBUTES = (Public, ); }; };
		4F1E153D21C8E76C00A62E2F /* mavlink_msg_log_request_end.h in Headers */ = {isa = PBXBuildFile; fileRef = 4F1E139421C8E76A00A62E2F /* mavlink_msg_log_request_end.h */; settings = {ATTRIBUTES = (Public, ); }; };
		4F1E153E21C8E76C00A62E2F /* MVMessageNavControllerOutput.m in Sources */ = {isa = PBXBuildFile; fileRef = 4F1E139521C8E76A00A62E2F /* MVMessageNavControllerOutput.m */; };
		4F1E153F21C8E76C00A62E2F /* MVMessageRcChannelsScaled.m in Sources */ = {isa = PBXBuildFile; fileRef = 4F1E139621C8E76A00A62E2F /* MVMessageRcChannelsScaled.m */; };
		4F1E154021C8E76C00A62E2F /* MVMessageAttitude.h in Headers */ = {isa = PBXBuildFile; fileRef = 4F1E139721C8E76A00A62E2F /* MVMessageAttitude.h */; settings = {ATTRIBUTES = (Public, ); }; };
		4F1E154121C8E76C00A62E2F /* MVMessageGpsRawInt.h in Headers */ = {isa = PBXBuildFile; fileRef = 4F1E139821C8E76A00A62E2F /* MVMessageGpsRawInt.h */; settings = {ATTRIBUTES = (Public, ); }; };
		4F1E154221C8E76C00A62E2F /* MVMessageSetAttitudeTarget.h in Headers */ = {isa = PBXBuildFile; fileRef = 4F1E139921C8E76A00A62E2F /* MVMessageSetAttitudeTarget.h */; settings = {ATTRIBUTES = (Public, ); }; };
		4F1E154321C8E76C00A62E2F /* mavlink_msg_scaled_imu2.h in Headers */ = {isa = PBXBuildFile; fileRef = 4F1E139A21C8E76A00A62E2F /* mavlink_msg_scaled_imu2.h */; settings = {ATTRIBUTES = (Public, ); }; };
		4F1E154421C8E76C00A62E2F /* mavlink_msg_adsb_vehicle.h in Headers */ = {isa = PBXBuildFile; fileRef = 4F1E139B21C8E76A00A62E2F /* mavlink_msg_adsb_vehicle.h */; settings = {ATTRIBUTES = (Public, ); }; };
		4F1E154521C8E76C00A62E2F /* MVMessageHilRcInputsRaw.h in Headers */ = {isa = PBXBuildFile; fileRef = 4F1E139C21C8E76A00A62E2F /* MVMessageHilRcInputsRaw.h */; settings = {ATTRIBUTES = (Public, ); }; };
		4F1E154621C8E76C00A62E2F /* MVMessageSetPositionTargetLocalNed.h in Headers */ = {isa = PBXBuildFile; fileRef = 4F1E139D21C8E76A00A62E2F /* MVMessageSetPositionTargetLocalNed.h */; settings = {ATTRIBUTES = (Public, ); }; };
		4F1E154721C8E76C00A62E2F /* MVMessageAttPosMocap.h in Headers */ = {isa = PBXBuildFile; fileRef = 4F1E139E21C8E76A00A62E2F /* MVMessageAttPosMocap.h */; settings = {ATTRIBUTES = (Public, ); }; };
		4F1E154821C8E76C00A62E2F /* mavlink_msg_rc_channels_raw.h in Headers */ = {isa = PBXBuildFile; fileRef = 4F1E139F21C8E76A00A62E2F /* mavlink_msg_rc_channels_raw.h */; settings = {ATTRIBUTES = (Public, ); }; };
		4F1E154921C8E76C00A62E2F /* MVMessageSysStatus.h in Headers */ = {isa = PBXBuildFile; fileRef = 4F1E13A021C8E76A00A62E2F /* MVMessageSysStatus.h */; settings = {ATTRIBUTES = (Public, ); }; };
		4F1E154A21C8E76C00A62E2F /* MVMessageV2Extension.h in Headers */ = {isa = PBXBuildFile; fileRef = 4F1E13A121C8E76A00A62E2F /* MVMessageV2Extension.h */; settings = {ATTRIBUTES = (Public, ); }; };
		4F1E154B21C8E76C00A62E2F /* mavlink_msg_mission_request_partial_list.h in Headers */ = {isa = PBXBuildFile; fileRef = 4F1E13A221C8E76A00A62E2F /* mavlink_msg_mission_request_partial_list.h */; settings = {ATTRIBUTES = (Public, ); }; };
